[
    {"title": "종로구", "lng": 126.981641666666, "lat": 37.5703777777777},
    {"title": "중구", "lng": 126.999641666666, "lat": 37.5610027777777},
    {"title": "용산구", "lng": 126.967522222222, "lat": 37.5360944444444},
    {"title": "성동구", "lng": 127.039, "lat": 37.5606111111111},
    {"title": "광진구", "lng": 127.084533333333, "lat": 37.5357388888888},
    {"title": "동대문구", "lng": 127.042141666666, "lat": 37.571625},
    {"title": "중랑구", "lng": 127.094777777777, "lat": 37.6038055555555},
    {"title": "성북구", "lng": 127.020333333333, "lat": 37.5863833333333},
    {"title": "강북구", "lng": 127.027719444444, "lat": 37.6369555555555},
    {"title": "도봉구", "lng": 127.049522222222, "lat": 37.6658333333333},
    {"title": "노원구", "lng": 127.058388888888, "lat": 37.6514611111111},
    {"title": "은평구", "lng": 126.931241666666, "lat": 37.5999694444444},
    {"title": "서대문구", "lng": 126.938897222222, "lat": 37.5763666666666},
    {"title": "마포구", "lng": 126.910530555555, "lat": 37.5607055555555},
    {"title": "양천구", "lng": 126.868708333333, "lat": 37.5142305555555},
    {"title": "강서구", "lng": 126.851675, "lat": 37.5481555555555},
    {"title": "구로구", "lng": 126.889597222222, "lat": 37.49265},
    {"title": "금천구", "lng": 126.904197222222, "lat": 37.4491083333333},
    {"title": "영등포구", "lng": 126.898341666666, "lat": 37.5236111111111},
    {"title": "동작구", "lng": 126.941575, "lat": 37.5096555555555},
    {"title": "관악구", "lng": 126.953844444444, "lat": 37.4753861111111},
    {"title": "서초구", "lng": 127.034811111111, "lat": 37.4807861111111},
    {"title": "강남구", "lng": 127.049555555555, "lat": 37.514575},
    {"title": "송파구", "lng": 127.107930555555, "lat": 37.5117555555555},
    {"title": "강동구", "lng": 127.125863888888, "lat": 37.5273666666666}
]
